[
    {
        "country": "United States",
        "elevation": 3850,
        "id": 120902,
        "latitude": 35.347,
        "location": "US-Arizona",
        "longitude": -111.678,
        "morphology": "Cinder cone",
        "name": "San Francisco Volcanic Field"
    },
    {
        "country": "Indonesia",
        "elevation": 1000,
        "id": 60127,
        "latitude": -5.25,
        "location": "Sumatra",
        "longitude": 104.27,
        "morphology": "Maar",
        "name": "Suoh"
    },
    {
        "country": "Turkey",
        "elevation": 4434,
        "id": 103021,
        "latitude": 38.92,
        "location": "Turkey",
        "longitude": 42.82,
        "morphology": "Stratovolcano",
        "name": "Suphan Dagi"
    },
    {
        "country": "United States",
        "elevation": -8,
        "id": 804142,
        "latitude": 20.13,
        "location": "Mariana Is-C Pacific",
        "longitude": 145.1,
        "morphology": "Submarine volcano",
        "name": "Supply Reef"
    },
    {
        "country": "Japan",
        "elevation": 796,
        "id": 80203,
        "latitude": 29.638,
        "location": "Ryukyu Is",
        "longitude": 129.714,
        "morphology": "Stratovolcano",
        "name": "Suwanosejima"
    },
    {
        "country": "United States",
        "elevation": 931,
        "id": 404001,
        "latitude": -14.23,
        "location": "Samoa-SW Pacific",
        "longitude": -169.454,
        "morphology": "Shield volcano",
        "name": "Ta'u"
    },
    {
        "country": "Philippines",
        "elevation": 311,
        "id": 70307,
        "latitude": 14.002,
        "location": "Luzon-Philippines",
        "longitude": 120.993,
        "morphology": "Stratovolcano",
        "name": "Taal"
    },
    {
        "country": "El Salvador",
        "elevation": 1172,
        "id": 1403072,
        "latitude": 13.435,
        "location": "El Salvador",
        "longitude": -88.532,
        "morphology": "Stratovolcano",
        "name": "Taburete"
    },
    {
        "country": "Mexico",
        "elevation": 4064,
        "id": 140113,
        "latitude": 15.132,
        "location": "Mexico",
        "longitude": -92.109,
        "morphology": "Stratovolcano",
        "name": "Tacana"
    },
    {
        "country": "Chile",
        "elevation": 5980,
        "id": 150501,
        "latitude": -17.72,
        "location": "Chile-N",
        "longitude": -69.77,
        "morphology": "Stratovolcano",
        "name": "Tacora"
    },
    {
        "country": "Iran",
        "elevation": 3940,
        "id": 30205,
        "latitude": 28.6,
        "location": "Iran",
        "longitude": 61.13,
        "morphology": "Stratovolcano",
        "name": "Taftan"
    },
    {
        "country": "Yemen",
        "elevation": 244,
        "id": 20101,
        "latitude": 15.55,
        "location": "Red Sea",
        "longitude": 41.83,
        "morphology": "Stratovolcano",
        "name": "Tair, Jebel at"
    },
    {
        "country": "Japan",
        "elevation": 1795,
        "id": 803143,
        "latitude": 36.9,
        "location": "Honshu-Japan",
        "longitude": 139.777,
        "morphology": "Stratovolcano",
        "name": "Takaharayama"
    },
    {
        "country": "United States",
        "elevation": 1449,
        "id": 110109,
        "latitude": 51.873,
        "location": "Aleutian Is",
        "longitude": -178.006,
        "morphology": "Stratovolcano",
        "name": "Takawangha"
    },
    {
        "country": "Papua New Guinea",
        "elevation": 2210,
        "id": 505021,
        "latitude": -6.442,
        "location": "Bougainville-SW Paci",
        "longitude": 155.608,
        "morphology": "Volcanic complex",
        "name": "Takuan Group"
    },
    {
        "country": "Indonesia",
        "elevation": 2919,
        "id": 60113,
        "latitude": 0.079,
        "location": "Sumatra",
        "longitude": 99.98,
        "morphology": "Complex volcano",
        "name": "Talakmau"
    },
    {
        "country": "Indonesia",
        "elevation": 2575,
        "id": 60116,
        "latitude": -0.979,
        "location": "Sumatra",
        "longitude": 100.681,
        "morphology": "Stratovolcano",
        "name": "Talang"
    },
    {
        "country": "Indonesia",
        "elevation": 2850,
        "id": 60404,
        "latitude": -8.25,
        "location": "Lesser Sunda Is",
        "longitude": 118,
        "morphology": "Stratovolcano",
        "name": "Tambora"
    },
    {
        "country": "Indonesia",
        "elevation": 1684,
        "id": 603131,
        "latitude": -6.77,
        "location": "Java",
        "longitude": 107.95,
        "morphology": "Stratovolcano",
        "name": "Tampomas"
    },
    {
        "country": "Indonesia",
        "elevation": 2854,
        "id": 60115,
        "latitude": -0.39,
        "location": "Sumatra",
        "longitude": 100.331,
        "morphology": "Stratovolcano",
        "name": "Tandikat-Singgalang"
    },
    {
        "country": "Indonesia",
        "elevation": 2084,
        "id": 60309,
        "latitude": -6.77,
        "location": "Java",
        "longitude": 107.6,
        "morphology": "Stratovolcano",
        "name": "Tangkuban Parahu"
    },
    {
        "country": "Russia",
        "elevation": 1325,
        "id": 90031,
        "latitude": 49.35,
        "location": "Kuril Is",
        "longitude": 154.7,
        "morphology": "Stratovolcano",
        "name": "Tao-Rusyr Caldera"
    },
    {
        "country": "Indonesia",
        "elevation": 633,
        "id": 60426,
        "latitude": -7.791,
        "location": "Lesser Sunda Is",
        "longitude": 123.585,
        "morphology": "Stratovolcano",
        "name": "Tara, Batu"
    },
    {
        "country": "Mongolia",
        "elevation": 2326,
        "id": 100301,
        "latitude": 48.133,
        "location": "Mongolia",
        "longitude": 99.95,
        "morphology": "Volcanic field",
        "name": "Taryatu-Chulutu"
    },
    {
        "country": "Japan",
        "elevation": 2621,
        "id": 80308,
        "latitude": 36.571,
        "location": "Honshu-Japan",
        "longitude": 137.59,
        "morphology": "Stratovolcano",
        "name": "Midagahara"
    },
    {
        "country": "Japan",
        "elevation": 2480,
        "id": 803031,
        "latitude": 36.087,
        "location": "Honshu-Japan",
        "longitude": 138.32,
        "morphology": "Stratovolcano",
        "name": "Yokodake"
    },
    {
        "country": "China",
        "elevation": 1120,
        "id": 801032,
        "latitude": 25.178,
        "location": "Taiwan",
        "longitude": 121.553,
        "morphology": "Stratovolcano",
        "name": "Tatun Volcanic Group"
    },
    {
        "country": "Russia",
        "elevation": 2301,
        "id": 100016,
        "latitude": 54.528,
        "location": "Kamchatka",
        "longitude": 159.804,
        "morphology": "Stratovolcano",
        "name": "Taunshits"
    },
    {
        "country": "New Zealand",
        "elevation": 760,
        "id": 40107,
        "latitude": -38.82,
        "location": "New Zealand",
        "longitude": 176,
        "morphology": "Caldera",
        "name": "Taupo"
    },
    {
        "country": "Fiji",
        "elevation": 1241,
        "id": 40501,
        "latitude": -16.82,
        "location": "Fiji Is-SW Pacific",
        "longitude": -179.97,
        "morphology": "Shield volcano",
        "name": "Taveuni"
    },
    {
        "country": "France",
        "elevation": -1743,
        "id": 130303,
        "latitude": -17.564,
        "location": "Society Is-C Pacific",
        "longitude": -148.821,
        "morphology": "Submarine volcano",
        "name": "Teahitia"
    },
    {
        "country": "El Salvador",
        "elevation": 1593,
        "id": 140308,
        "latitude": 13.494,
        "location": "El Salvador",
        "longitude": -88.502,
        "morphology": "Stratovolcano",
        "name": "Tecapa"
    },
    {
        "country": "Guatemala",
        "elevation": 1845,
        "id": 140212,
        "latitude": 14.156,
        "location": "Guatemala",
        "longitude": -90.407,
        "morphology": "Stratovolcano",
        "name": "Tecuamburro"
    },
    {
        "country": "Nicaragua",
        "elevation": 1036,
        "id": 140404,
        "latitude": 12.606,
        "location": "Nicaragua",
        "longitude": -86.84,
        "morphology": "Stratovolcano",
        "name": "Telica"
    },
    {
        "country": "Indonesia",
        "elevation": 1864,
        "id": 603231,
        "latitude": -7.362,
        "location": "Java",
        "longitude": 110.4,
        "morphology": "Stratovolcano",
        "name": "Telomoyo"
    },
    {
        "country": "Turkey",
        "elevation": 3514,
        "id": 10303,
        "latitude": 39.356,
        "location": "Turkey",
        "longitude": 43.874,
        "morphology": "Shield volcano",
        "name": "Tenduruk Dagi"
    },
    {
        "country": "Spain",
        "elevation": 3715,
        "id": 180303,
        "latitude": 28.271,
        "location": "Canary Is",
        "longitude": -16.641,
        "morphology": "Stratovolcano",
        "name": "Tenerife"
    },
    {
        "country": "China",
        "elevation": 2865,
        "id": 70511,
        "latitude": 25.23,
        "location": "China-S",
        "longitude": 98.5,
        "morphology": "Pyroclastic cone",
        "name": "Tengchong"
    },
    {
        "country": "Costa Rica",
        "elevation": 1916,
        "id": 1405031,
        "latitude": 10.673,
        "location": "Costa Rica",
        "longitude": -85.015,
        "morphology": "Stratovolcano",
        "name": "Tenorio"
    },
    {
        "country": "Pacific Ocean",
        "elevation": 728,
        "id": 60505,
        "latitude": -6.976,
        "location": "Banda Sea",
        "longitude": 129.144,
        "morphology": "Stratovolcano",
        "name": "Teon"
    },
    {
        "country": "Ethiopia",
        "elevation": 2728,
        "id": 201292,
        "latitude": 7.42,
        "location": "Africa-NE",
        "longitude": 35.43,
        "morphology": "Shield volcano",
        "name": "Tepi"
    },
    {
        "country": "Portugal",
        "elevation": 1023,
        "id": 180205,
        "latitude": 38.73,
        "location": "Azores",
        "longitude": -27.32,
        "morphology": "Stratovolcano",
        "name": "Terceira"
    },
    {
        "country": "Iceland",
        "elevation": 540,
        "id": 170309,
        "latitude": 65.833,
        "location": "Iceland",
        "longitude": -17.166,
        "morphology": "Shield volcano",
        "name": "Theistareykir"
    },
    {
        "country": "Atlantic Ocean",
        "elevation": 0,
        "id": 180603,
        "latitude": -53.93,
        "location": "Atlantic-S",
        "longitude": 5.5,
        "morphology": "Submarine volcano",
        "name": "Thompson Island"
    },
    {
        "country": "Antarctica",
        "elevation": 1075,
        "id": 190007,
        "latitude": -59.442,
        "location": "Antarctica",
        "longitude": -27.225,
        "morphology": "Stratovolcano",
        "name": "Southern Thule"
    },
    {
        "country": "China",
        "elevation": 0,
        "id": 100402,
        "latitude": 42.5,
        "location": "China-W",
        "longitude": 82.5,
        "morphology": "Volcanic field",
        "name": "Tianshan Volc Group"
    },
    {
        "country": "Russia",
        "elevation": 1822,
        "id": 90003,
        "latitude": 44.353,
        "location": "Kuril Is",
        "longitude": 146.252,
        "morphology": "Stratovolcano",
        "name": "Chachadake [Tiatia]"
    },
    {
        "country": "Peru",
        "elevation": 5408,
        "id": 1504031,
        "latitude": -16.755,
        "location": "Peru",
        "longitude": -70.595,
        "morphology": "Stratovolcano",
        "name": "Ticsani"
    },
    {
        "country": "Indonesia",
        "elevation": 1730,
        "id": 608061,
        "latitude": 0.658,
        "location": "Halmahera-Indonesia",
        "longitude": 127.4,
        "morphology": "Stratovolcano",
        "name": "Tidore"
    },
    {
        "country": "Indonesia",
        "elevation": 422,
        "id": 608071,
        "latitude": 0.07,
        "location": "Halmahera-Indonesia",
        "longitude": 127.42,
        "morphology": "Unknown",
        "name": "Tigalalu"
    },
    {
        "country": "Solomon Is.",
        "elevation": 796,
        "id": 50601,
        "latitude": -10.386,
        "location": "Santa Cruz Is-SW Pac",
        "longitude": 165.804,
        "morphology": "Stratovolcano",
        "name": "Tinakula"
    },
    {
        "country": "Iceland",
        "elevation": 1464,
        "id": 170204,
        "latitude": 63.783,
        "location": "Iceland-S",
        "longitude": -19.716,
        "morphology": "Stratovolcano",
        "name": "Tindfjallajokull"
    },
    {
        "country": "Argentina",
        "elevation": 6205,
        "id": 1505131,
        "latitude": -27.105,
        "location": "Argentina",
        "longitude": -68.713,
        "morphology": "Complex volcano",
        "name": "Solo, El"
    },
    {
        "country": "Russia",
        "elevation": 1523,
        "id": 100056,
        "latitude": 57.406,
        "location": "Kamchatka",
        "longitude": 160.108,
        "morphology": "Shield volcano",
        "name": "Titila"
    },
    {
        "country": "Iceland",
        "elevation": -75,
        "id": 170310,
        "latitude": 66.309,
        "location": "Iceland-N of",
        "longitude": -17.118,
        "morphology": "Submarine volcano",
        "name": "Tjornes Fracture Zone"
    },
    {
        "country": "United States",
        "elevation": 50,
        "id": 110506,
        "latitude": 55.25,
        "location": "Alaska-SE",
        "longitude": -133.3,
        "morphology": "Volcanic field",
        "name": "Tlevak Strait-Suemez Is."
    },
    {
        "country": "Japan",
        "elevation": 508,
        "id": 804011,
        "latitude": 34.52,
        "location": "Izu Is-Japan",
        "longitude": 139.279,
        "morphology": "Stratovolcano",
        "name": "Toshima"
    },
    {
        "country": "Indonesia",
        "elevation": 1035,
        "id": 60802,
        "latitude": 1.63,
        "location": "Halmahera-Indonesia",
        "longitude": 127.67,
        "morphology": "Unknown",
        "name": "Tobaru"
    },
    {
        "country": "Tonga",
        "elevation": 515,
        "id": 40306,
        "latitude": -19.75,
        "location": "Tonga-SW Pacific",
        "longitude": -175.07,
        "morphology": "Caldera",
        "name": "Tofua"
    },
    {
        "country": "Chad",
        "elevation": 1780,
        "id": 205001,
        "latitude": 17.68,
        "location": "Africa-N",
        "longitude": 8.5,
        "morphology": "Volcanic field",
        "name": "Todra Volcanic Field"
    },
    {
        "country": "Japan",
        "elevation": 2077,
        "id": 80505,
        "latitude": 43.418,
        "location": "Hokkaido-Japan",
        "longitude": 142.686,
        "morphology": "Stratovolcano",
        "name": "Tokachidake"
    },
    {
        "country": "Russia",
        "elevation": 3611,
        "id": 100024,
        "latitude": 55.832,
        "location": "Kamchatka",
        "longitude": 160.326,
        "morphology": "Shield volcano",
        "name": "Tolbachik"
    },
    {
        "country": "Colombia",
        "elevation": 5215,
        "id": 150103,
        "latitude": 4.658,
        "location": "Colombia",
        "longitude": -75.33,
        "morphology": "Stratovolcano",
        "name": "Tolima, Nevado del"
    },
    {
        "country": "Guatemala",
        "elevation": 3158,
        "id": 140207,
        "latitude": 14.612,
        "location": "Guatemala",
        "longitude": -91.189,
        "morphology": "Stratovolcano",
        "name": "Toliman"
    },
    {
        "country": "Russia",
        "elevation": 1021,
        "id": 1000082,
        "latitude": 52.63,
        "location": "Kamchatka",
        "longitude": 157.58,
        "morphology": "Cinder cone",
        "name": "Tolmachev Dol"
    },
    {
        "country": "Mexico",
        "elevation": 4680,
        "id": 140107,
        "latitude": 19.108,
        "location": "Mexico",
        "longitude": -99.758,
        "morphology": "Stratovolcano",
        "name": "Toluca, Nevado de"
    },
    {
        "country": "Antarctica",
        "elevation": 3595,
        "id": 1900026,
        "latitude": -75.8,
        "location": "Antarctica",
        "longitude": -115.83,
        "morphology": "Shield volcano",
        "name": "Toney Mountain"
    },
    {
        "country": "Indonesia",
        "elevation": 1334,
        "id": 60613,
        "latitude": 1.518,
        "location": "Sulawesi-Indonesia",
        "longitude": 125.185,
        "morphology": "Stratovolcano",
        "name": "Tangkoko-Duasudara"
    },
    {
        "country": "Papua New Guinea",
        "elevation": 2175,
        "id": 50500,
        "latitude": -5.835,
        "location": "Bougainville-SW Paci",
        "longitude": 154.935,
        "morphology": "Lava cone",
        "name": "Tore"
    },
    {
        "country": "Japan",
        "elevation": 394,
        "id": 80409,
        "latitude": 30.484,
        "location": "Izu Is-Japan",
        "longitude": 140.303,
        "morphology": "Stratovolcano",
        "name": "Izu-Torishima"
    },
    {
        "country": "Vietnam",
        "elevation": 800,
        "id": 70503,
        "latitude": 14.93,
        "location": "SE Asia",
        "longitude": 108,
        "morphology": "Cinder cone",
        "name": "Toroeng Prong"
    },
    {
        "country": "Mexico",
        "elevation": 224,
        "id": 1401011,
        "latitude": 27.438,
        "location": "Mexico",
        "longitude": -111.881,
        "morphology": "Shield volcano",
        "name": "Tortuga, Isla"
    },
    {
        "country": "Ethiopia",
        "elevation": 1650,
        "id": 20131,
        "latitude": 5.92,
        "location": "Africa-NE",
        "longitude": 37.57,
        "morphology": "Cinder cone",
        "name": "Tosa Sucha"
    },
    {
        "country": "Chad",
        "elevation": 3265,
        "id": 20501,
        "latitude": 21.03,
        "location": "Africa-N",
        "longitude": 16.45,
        "morphology": "Stratovolcano",
        "name": "Tousside, Tarso"
    },
    {
        "country": "Vanuatu",
        "elevation": 817,
        "id": 50709,
        "latitude": -18.754,
        "location": "Vanuatu-SW Pacific",
        "longitude": 169.238,
        "morphology": "Stratovolcano",
        "name": "Traitor's Head"
    },
    {
        "country": "Mexico",
        "elevation": 1934,
        "id": 140101,
        "latitude": 27.47,
        "location": "Mexico",
        "longitude": -112.591,
        "morphology": "Stratovolcano",
        "name": "Tres Virgenes"
    },
    {
        "country": "Russia",
        "elevation": 998,
        "id": 900113,
        "latitude": 45.93,
        "location": "Kuril Is",
        "longitude": 149.92,
        "morphology": "Stratovolcano",
        "name": "Tri Sestry"
    },
    {
        "country": "Atlantic Ocean",
        "elevation": 600,
        "id": 1805051,
        "latitude": -20.514,
        "location": "Atlantic-S",
        "longitude": -29.331,
        "morphology": "Stratovolcano",
        "name": "Trindade"
    },
    {
        "country": "Atlantic Ocean",
        "elevation": 2060,
        "id": 180601,
        "latitude": -37.092,
        "location": "Atlantic-S",
        "longitude": -12.28,
        "morphology": "Stratovolcano",
        "name": "Tristan da Cunha"
    },
    {
        "country": "Canada",
        "elevation": 609,
        "id": 120010,
        "latitude": 55.12,
        "location": "Canada",
        "longitude": -128.9,
        "morphology": "Pyroclastic cone",
        "name": "Tseax River Cone"
    },
    {
        "country": "Japan",
        "elevation": 1584,
        "id": 80213,
        "latitude": 33.282,
        "location": "Kyushu-Japan",
        "longitude": 131.39,
        "morphology": "Lava dome",
        "name": "Yufu-Tsurumi"
    },
    {
        "country": "Chile",
        "elevation": 4458,
        "id": 1505104,
        "latitude": -23.949,
        "location": "Chile-N",
        "longitude": -67.74,
        "morphology": "Maar",
        "name": "Caichinque"
    },
    {
        "country": "Ecuador",
        "elevation": 3336,
        "id": 1502081,
        "latitude": -1.78,
        "location": "Ecuador",
        "longitude": -78.613,
        "morphology": "Scoria cone",
        "name": "Licto"
    },
    {
        "country": "Ethiopia",
        "elevation": 2343,
        "id": 20125,
        "latitude": 8.159,
        "location": "Africa-NE",
        "longitude": 39.137,
        "morphology": "Pumice cone",
        "name": "Tullu Moye"
    },
    {
        "country": "Russia",
        "elevation": 1234,
        "id": 1000059,
        "latitude": 52.43,
        "location": "Kamchatka",
        "longitude": 157.93,
        "morphology": "Shield volcano",
        "name": "Visokiy"
    },
    {
        "country": "Iceland",
        "elevation": 1523,
        "id": 170304,
        "latitude": 64.75,
        "location": "Iceland-NE",
        "longitude": -17.916,
        "morphology": "Stratovolcano",
        "name": "Tungnafellsjokull"
    },
    {
        "country": "Ecuador",
        "elevation": 5023,
        "id": 150208,
        "latitude": -1.467,
        "location": "Ecuador",
        "longitude": -78.442,
        "morphology": "Stratovolcano",
        "name": "Tungurahua"
    },
    {
        "country": "Russia",
        "elevation": 1200,
        "id": 100205,
        "latitude": 51.5,
        "location": "Russia-SE",
        "longitude": 102.5,
        "morphology": "Volcanic field",
        "name": "Tunkin Depression"
    },
    {
        "country": "China",
        "elevation": 0,
        "id": 100401,
        "latitude": 42.9,
        "location": "China-W",
        "longitude": 89.25,
        "morphology": "Cone",
        "name": "Turfan"
    },
    {
        "country": "American Samoa",
        "elevation": 653,
        "id": 40402,
        "latitude": -14.295,
        "location": "Samoa-SW Pacific",
        "longitude": -170.7,
        "morphology": "Tuff cone",
        "name": "Tutuila"
    },
    {
        "country": "Peru",
        "elevation": 5801,
        "id": 150404,
        "latitude": -17.026,
        "location": "Peru",
        "longitude": -70.372,
        "morphology": "Stratovolcano",
        "name": "Tutupaca"
    },
    {
        "country": "Russia",
        "elevation": 1516,
        "id": 100055,
        "latitude": 57.32,
        "location": "Kamchatka",
        "longitude": 159.967,
        "morphology": "Shield volcano",
        "name": "Tuzovsky"
    },
    {
        "country": "United States",
        "elevation": 1631,
        "id": 120305,
        "latitude": 40.78,
        "location": "US-California",
        "longitude": -121.6,
        "morphology": "Cinder cone",
        "name": "Twin Buttes"
    },
    {
        "country": "United States",
        "elevation": 752,
        "id": 120316,
        "latitude": 37.02,
        "location": "US-California",
        "longitude": -117.45,
        "morphology": "Maar",
        "name": "Ubehebe Craters"
    },
    {
        "country": "Peru",
        "elevation": 5672,
        "id": 150402,
        "latitude": -16.355,
        "location": "Peru",
        "longitude": -70.903,
        "morphology": "Stratovolcano",
        "name": "Ubinas"
    },
    {
        "country": "Russia",
        "elevation": 2180,
        "id": 100203,
        "latitude": 56.28,
        "location": "Russia-SE",
        "longitude": 117.77,
        "morphology": "Shield volcano",
        "name": "Udokan Plateau"
    },
    {
        "country": "United States",
        "elevation": 1474,
        "id": 110213,
        "latitude": 57.751,
        "location": "Alaska Peninsula",
        "longitude": -156.368,
        "morphology": "Stratovolcano",
        "name": "Ugashik-Peulik"
    },
    {
        "country": "United States",
        "elevation": 1555,
        "id": 120901,
        "latitude": 36.38,
        "location": "US-Arizona",
        "longitude": -113.13,
        "morphology": "Volcanic field",
        "name": "Uinkaret Field"
    },
    {
        "country": "Russia",
        "elevation": 1607,
        "id": 100061,
        "latitude": 57.706,
        "location": "Kamchatka",
        "longitude": 160.59,
        "morphology": "Shield volcano",
        "name": "Uka"
    },
    {
        "country": "Russia",
        "elevation": 1692,
        "id": 100035,
        "latitude": 56.08,
        "location": "Kamchatka",
        "longitude": 158.38,
        "morphology": "Shield volcano",
        "name": "Uksichan"
    },
    {
        "country": "United States",
        "elevation": 888,
        "id": 110125,
        "latitude": 53.065,
        "location": "Aleutian Is",
        "longitude": -169.77,
        "morphology": "Stratovolcano",
        "name": "Uliaga"
    },
    {
        "country": "South Korea",
        "elevation": 984,
        "id": 100603,
        "latitude": 37.5,
        "location": "Korea",
        "longitude": 130.87,
        "morphology": "Stratovolcano",
        "name": "Ulreung"
    },
    {
        "country": "Russia",
        "elevation": 2765,
        "id": 100207,
        "latitude": 52.433,
        "location": "Russia-SE",
        "longitude": 98.303,
        "morphology": "Cinder cone",
        "name": "Azas Plateau"
    },
    {
        "country": "Papua New Guinea",
        "elevation": 1548,
        "id": 50106,
        "latitude": -5.589,
        "location": "New Guinea-NE of",
        "longitude": 147.875,
        "morphology": "Complex volcano",
        "name": "Umboi"
    },
    {
        "country": "Sudan",
        "elevation": 0,
        "id": 20507,
        "latitude": 18.17,
        "location": "Africa-N",
        "longitude": 33.83,
        "morphology": "Shield volcano",
        "name": "Umm Arafieb, Jebel"
    },
    {
        "country": "Indonesia",
        "elevation": 2050,
        "id": 60323,
        "latitude": -7.18,
        "location": "Java",
        "longitude": 110.33,
        "morphology": "Stratovolcano",
        "name": "Ungaran"
    },
    {
        "country": "Georgia",
        "elevation": 3750,
        "id": 10404,
        "latitude": 42.45,
        "location": "Georgia",
        "longitude": 44.25,
        "morphology": "Cinder cone",
        "name": "Unnamed"
    },
    {
        "country": "Atlantic Ocean",
        "elevation": -1415,
        "id": 180501,
        "latitude": 7,
        "location": "Atlantic-C",
        "longitude": -21.83,
        "morphology": "Submarine volcano",
        "name": "Unnamed"
    },
    {
        "country": "Ethiopia",
        "elevation": 1800,
        "id": 201221,
        "latitude": 8.62,
        "location": "Africa-NE",
        "longitude": 38.95,
        "morphology": "Fissure vent",
        "name": "Unnamed"
    },
    {
        "country": "Atlantic Ocean",
        "elevation": -1528,
        "id": 180503,
        "latitude": -0.433,
        "location": "Atlantic-C",
        "longitude": -19.596,
        "morphology": "Submarine volcano",
        "name": "Romanche Fracture Zone"
    },
    {
        "country": "Antarctica",
        "elevation": 2987,
        "id": 1900014,
        "latitude": -73.45,
        "location": "Antarctica",
        "longitude": 164.58,
        "morphology": "Scoria cone",
        "name": "Unnamed"
    },
    {
        "country": "Ethiopia",
        "elevation": 1300,
        "id": 201201,
        "latitude": 8.7,
        "location": "Africa-NE",
        "longitude": 39.63,
        "morphology": "Pyroclastic cone",
        "name": "Unnamed"
    },
    {
        "country": "Antarctica",
        "elevation": -500,
        "id": 1900016,
        "latitude": -76.83,
        "location": "Antarctica",
        "longitude": 163,
        "morphology": "Submarine volcano",
        "name": "Unnamed"
    },
    {
        "country": "Ethiopia",
        "elevation": 1886,
        "id": 201251,
        "latitude": 8.013,
        "location": "Africa-NE",
        "longitude": 39.062,
        "morphology": "Fissure vent",
        "name": "Unnamed"
    },
    {
        "country": "Ethiopia",
        "elevation": 1889,
        "id": 201252,
        "latitude": 7.874,
        "location": "Africa-NE",
        "longitude": 38.902,
        "morphology": "Fissure vent",
        "name": "East Zway"
    },
    {
        "country": "Atlantic Ocean",
        "elevation": -5300,
        "id": 180504,
        "latitude": -3.5,
        "location": "Atlantic-C",
        "longitude": -24.5,
        "morphology": "Submarine volcano",
        "name": "Unnamed"
    },
    {
        "country": "Atlantic Ocean",
        "elevation": -2900,
        "id": 180502,
        "latitude": 4.2,
        "location": "Atlantic-C",
        "longitude": -21.45,
        "morphology": "Submarine volcano",
        "name": "Unnamed"
    },
    {
        "country": "Georgia",
        "elevation": 3290,
        "id": 10405,
        "latitude": 41.542,
        "location": "Georgia",
        "longitude": 43.7,
        "morphology": "Lava cone",
        "name": "Samsari Volcanic Center"
    },
    {
        "country": "Ethiopia",
        "elevation": 1150,
        "id": 201311,
        "latitude": 5.708,
        "location": "Africa-NE",
        "longitude": 37.713,
        "morphology": "Cinder cone",
        "name": "East Chamo Basin"
    },
    {
        "country": "Chile",
        "elevation": -642,
        "id": 150604,
        "latitude": -33.62,
        "location": "Chile-Is",
        "longitude": -76.83,
        "morphology": "Submarine volcano",
        "name": "Unnamed"
    },
    {
        "country": "Arctic Ocean",
        "elevation": -1500,
        "id": 170701,
        "latitude": 88.27,
        "location": "Arctic Ocean",
        "longitude": -65.6,
        "morphology": "Submarine volcano",
        "name": "Unnamed"
    },
    {
        "country": "Atlantic Ocean",
        "elevation": -4200,
        "id": 180104,
        "latitude": 38.75,
        "location": "Atlantic-N",
        "longitude": -38.08,
        "morphology": "Submarine volcano",
        "name": "Pico Fracture Zone"
    },
    {
        "country": "Atlantic Ocean",
        "elevation": -2835,
        "id": 180103,
        "latitude": 39.95,
        "location": "Atlantic-N",
        "longitude": -25.83,
        "morphology": "Submarine volcano",
        "name": "Unnamed"
    },
    {
        "country": "Portugal",
        "elevation": 350,
        "id": 1802081,
        "latitude": 37.78,
        "location": "Azores",
        "longitude": -25.67,
        "morphology": "Pyroclastic cone",
        "name": "Picos Volcanic System"
    },
    {
        "country": "United States",
        "elevation": -4000,
        "id": 130209,
        "latitude": 23.58,
        "location": "Hawaiian Is",
        "longitude": -163.83,
        "morphology": "Submarine volcano",
        "name": "Unnamed"
    },
    {
        "country": "Mexico",
        "elevation": 0,
        "id": 1401008,
        "latitude": 28,
        "location": "Mexico",
        "longitude": -115,
        "morphology": "Submarine volcano",
        "name": "Unnamed"
    },
    {
        "country": "Japan",
        "elevation": -991,
        "id": 804093,
        "latitude": 28.575,
        "location": "Volcano Is-Japan",
        "longitude": 140.633,
        "morphology": "Submarine volcano",
        "name": "Suiyo Seamount"
    },
    {
        "country": "Papua New Guinea",
        "elevation": 0,
        "id": 502131,
        "latitude": -4.75,
        "location": "New Britain-SW Pac",
        "longitude": 150.85,
        "morphology": "Submarine volcano",
        "name": "Unnamed"
    },
    {
        "country": "Russia",
        "elevation": 0,
        "id": 1000232,
        "latitude": 55.92,
        "location": "Kamchatka",
        "longitude": 161.75,
        "morphology": "Cinder cone",
        "name": "Unnamed"
    },
    {
        "country": "United States",
        "elevation": -3000,
        "id": 130208,
        "latitude": 21.75,
        "location": "Hawaiian Is",
        "longitude": -158.75,
        "morphology": "Submarine volcano",
        "name": "Unnamed"
    },
    {
        "country": "United States",
        "elevation": -274,
        "id": 804135,
        "latitude": 21.6,
        "location": "Mariana Is-C Pacific",
        "longitude": 143.637,
        "morphology": "Submarine volcano",
        "name": "Kasuga 2"
    },
    {
        "country": "Philippines",
        "elevation": -24,
        "id": 70405,
        "latitude": 20.33,
        "location": "Luzon-N of",
        "longitude": 121.75,
        "morphology": "Submarine volcano",
        "name": "Unnamed"
    },
    {
        "country": "Papua New Guinea",
        "elevation": -2000,
        "id": 50104,
        "latitude": -4.311,
        "location": "New Guinea-NE of",
        "longitude": 146.256,
        "morphology": "Submarine volcano",
        "name": "Unnamed"
    },
    {
        "country": "Pacific Ocean",
        "elevation": -2533,
        "id": 130103,
        "latitude": 31.75,
        "location": "Pacific-NE",
        "longitude": -124.25,
        "morphology": "Submarine volcano",
        "name": "Unnamed"
    },
    {
        "country": "Russia",
        "elevation": -502,
        "id": 90016,
        "latitude": 46.47,
        "location": "Kuril Is",
        "longitude": 151.28,
        "morphology": "Submarine volcano",
        "name": "Unnamed"
    },
    {
        "country": "Tanzania",
        "elevation": 0,
        "id": 202162,
        "latitude": -8.63,
        "location": "Africa-E",
        "longitude": 33.57,
        "morphology": "Pyroclastic cone",
        "name": "Unnamed"
    },
    {
        "country": "United States",
        "elevation": 1323,
        "id": 1102051,
        "latitude": 55.913,
        "location": "Alaska Peninsula",
        "longitude": -160.041,
        "morphology": "Cinder cone",
        "name": "Stepovak Bay 2"
    },
    {
        "country": "China",
        "elevation": 5400,
        "id": 100404,
        "latitude": 35.85,
        "location": "China-W",
        "longitude": 91.7,
        "morphology": "Volcanic field",
        "name": "Unnamed"
    },
    {
        "country": "Russia",
        "elevation": 700,
        "id": 1000086,
        "latitude": 52.88,
        "location": "Kamchatka",
        "longitude": 158.3,
        "morphology": "Shield volcano",
        "name": "Unnamed"
    },
    {
        "country": "Russia",
        "elevation": -100,
        "id": 90013,
        "latitude": 46.1,
        "location": "Kuril Is",
        "longitude": 150.5,
        "morphology": "Submarine volcano",
        "name": "Unnamed"
    },
    {
        "country": "Russia",
        "elevation": -195,
        "id": 900061,
        "latitude": 45.022,
        "location": "Kuril Is",
        "longitude": 147.019,
        "morphology": "Submarine volcano",
        "name": "Unnamed"
    },
    {
        "country": "Vanuatu",
        "elevation": 216,
        "id": 50708,
        "latitude": -16.992,
        "location": "Vanuatu-SW Pacific",
        "longitude": 168.592,
        "morphology": "Stratovolcano",
        "name": "NE Shepherd Islands"
    },
    {
        "country": "United States",
        "elevation": -1535,
        "id": 804136,
        "latitude": 21.485,
        "location": "Mariana Is-C Pacific",
        "longitude": 144.043,
        "morphology": "Submarine volcano",
        "name": "NW Eifuku"
    },
    {
        "country": "Russia",
        "elevation": 646,
        "id": 1000021,
        "latitude": 51.533,
        "location": "Kamchatka",
        "longitude": 156.629,
        "morphology": "Cinder cone",
        "name": "Yavinsky"
    },
    {
        "country": "United States",
        "elevation": 402,
        "id": 1102132,
        "latitude": 57.87,
        "location": "Alaska Peninsula",
        "longitude": -155.411,
        "morphology": "Lava dome",
        "name": "Unnamed"
    },
    {
        "country": "Indian Ocean",
        "elevation": 0,
        "id": 30501,
        "latitude": 11.75,
        "location": "Indian O-E",
        "longitude": 80.75,
        "morphology": "Submarine volcano",
        "name": "Unnamed"
    },
    {
        "country": "Indian Ocean",
        "elevation": 0,
        "id": 30115,
        "latitude": 12.25,
        "location": "Arabia-S",
        "longitude": 45,
        "morphology": "Submarine volcano",
        "name": "Unnamed"
    },
    {
        "country": "Russia",
        "elevation": 450,
        "id": 1000085,
        "latitude": 52.92,
        "location": "Kamchatka",
        "longitude": 158.52,
        "morphology": "Shield volcano",
        "name": "Unnamed"
    },
    {
        "country": "United States",
        "elevation": -1300,
        "id": 50003,
        "latitude": -3.03,
        "location": "Admiralty Is-SW Paci",
        "longitude": 147.78,
        "morphology": "Submarine volcano",
        "name": "Central Bismarck Sea"
    },
    {
        "country": "Iran",
        "elevation": 1500,
        "id": 30204,
        "latitude": 28.17,
        "location": "Iran",
        "longitude": 60.67,
        "morphology": "Volcanic field",
        "name": "Kuh-e Nader"
    },
    {
        "country": "Taiwan",
        "elevation": 0,
        "id": 80103,
        "latitude": 24,
        "location": "Taiwan-E of",
        "longitude": 121.83,
        "morphology": "Submarine volcano",
        "name": "Unnamed"
    },
    {
        "country": "Syria",
        "elevation": 1436,
        "id": 30006,
        "latitude": 32.658,
        "location": "Syria",
        "longitude": 36.425,
        "morphology": "Volcanic field",
        "name": "Unnamed"
    },
    {
        "country": "Taiwan",
        "elevation": -10,
        "id": 801011,
        "latitude": 19.17,
        "location": "Taiwan-E of",
        "longitude": 132.25,
        "morphology": "Submarine volcano",
        "name": "Unnamed"
    },
    {
        "country": "Syria",
        "elevation": 945,
        "id": 30003,
        "latitude": 33.308,
        "location": "Syria",
        "longitude": 36.925,
        "morphology": "Volcanic field",
        "name": "Unnamed"
    },
    {
        "country": "Syria",
        "elevation": 0,
        "id": 30002,
        "latitude": 36.67,
        "location": "Syria",
        "longitude": 37,
        "morphology": "Unknown",
        "name": "Unnamed"
    },
    {
        "country": "Russia",
        "elevation": 610,
        "id": 1000081,
        "latitude": 52.57,
        "location": "Kamchatka",
        "longitude": 157.02,
        "morphology": "Cinder cone",
        "name": "Unnamed"
    },
    {
        "country": "Russia",
        "elevation": 1910,
        "id": 1000058,
        "latitude": 52.355,
        "location": "Kamchatka",
        "longitude": 157.827,
        "morphology": "Pyroclastic cone",
        "name": "Asacha"
    },
    {
        "country": "New Zealand",
        "elevation": -560,
        "id": 40204,
        "latitude": -29.18,
        "location": "Kermadec Is",
        "longitude": -177.87,
        "morphology": "Submarine volcano",
        "name": "Unnamed"
    },
    {
        "country": "United States",
        "elevation": -592,
        "id": 40400,
        "latitude": -14.215,
        "location": "Samoa-SW Pacific",
        "longitude": -169.058,
        "morphology": "Submarine volcano",
        "name": "Vailulu'u"
    },
    {
        "country": "Taiwan",
        "elevation": -100,
        "id": 80104,
        "latitude": 25.42,
        "location": "Taiwan-N of",
        "longitude": 122.33,
        "morphology": "Submarine volcano",
        "name": "Unnamed"
    },
    {
        "country": "Japan",
        "elevation": 1483,
        "id": 80210,
        "latitude": 32.761,
        "location": "Kyushu-Japan",
        "longitude": 130.299,
        "morphology": "Complex volcano",
        "name": "Unzendake"
    },
    {
        "country": "Samoa",
        "elevation": 1100,
        "id": 40403,
        "latitude": -13.935,
        "location": "Samoa-SW Pacific",
        "longitude": -171.72,
        "morphology": "Shield volcano",
        "name": "Upolu"
    },
    {
        "country": "Russia",
        "elevation": 401,
        "id": 90021,
        "latitude": 47.52,
        "location": "Kuril Is",
        "longitude": 152.8,
        "morphology": "Caldera",
        "name": "Ushishur"
    },
    {
        "country": "Russia",
        "elevation": 3943,
        "id": 1000261,
        "latitude": 56.113,
        "location": "Kamchatka",
        "longitude": 160.509,
        "morphology": "Compound volcano",
        "name": "Ushkovsky"
    },
    {
        "country": "Japan",
        "elevation": 733,
        "id": 80503,
        "latitude": 42.544,
        "location": "Hokkaido-Japan",
        "longitude": 140.839,
        "morphology": "Stratovolcano",
        "name": "Toya"
    },
    {
        "country": "El Salvador",
        "elevation": 1449,
        "id": 1403081,
        "latitude": 13.419,
        "location": "El Salvador",
        "longitude": -88.471,
        "morphology": "Stratovolcano",
        "name": "Usulutan"
    },
    {
        "country": "Russia",
        "elevation": 1617,
        "id": 100017,
        "latitude": 54.5,
        "location": "Kamchatka",
        "longitude": 159.97,
        "morphology": "Caldera",
        "name": "Uzon"
    },
    {
        "country": "Afghanistan",
        "elevation": 3190,
        "id": 30207,
        "latitude": 34.25,
        "location": "Afghanistan",
        "longitude": 67.97,
        "morphology": "Volcanic field",
        "name": "Vakak Group"
    },
    {
        "country": "United States",
        "elevation": 2507,
        "id": 110207,
        "latitude": 56.17,
        "location": "Alaska Peninsula",
        "longitude": -159.38,
        "morphology": "Stratovolcano",
        "name": "Veniaminof"
    },
    {
        "country": "Russia",
        "elevation": 1400,
        "id": 100044,
        "latitude": 56.52,
        "location": "Kamchatka",
        "longitude": 159.53,
        "morphology": "Shield volcano",
        "name": "Verkhovoy"
    },
    {
        "country": "Russia",
        "elevation": 1183,
        "id": 90037,
        "latitude": 50.55,
        "location": "Kuril Is",
        "longitude": 155.97,
        "morphology": "Cinder cone",
        "name": "Vernadskii Ridge"
    },
    {
        "country": "Iceland",
        "elevation": 283,
        "id": 170201,
        "latitude": 63.416,
        "location": "Iceland-S",
        "longitude": -20.266,
        "morphology": "Submarine volcano",
        "name": "Vestmannaeyjar"
    },
    {
        "country": "Vietnam",
        "elevation": -50,
        "id": 70507,
        "latitude": 9.83,
        "location": "SE Asia",
        "longitude": 109.05,
        "morphology": "Submarine volcano",
        "name": "Veteran"
    },
    {
        "country": "Papua New Guinea",
        "elevation": 1925,
        "id": 50303,
        "latitude": -9.2,
        "location": "New Guinea",
        "longitude": 149.07,
        "morphology": "Stratovolcano",
        "name": "Victory"
    },
    {
        "country": "Argentina",
        "elevation": 1300,
        "id": 1508061,
        "latitude": -49.358,
        "location": "Argentina",
        "longitude": -73.28,
        "morphology": "Subglacial volcano",
        "name": "Viedma, Volcan"
    },
    {
        "country": "Chile",
        "elevation": 2847,
        "id": 150712,
        "latitude": -39.42,
        "location": "Chile-C",
        "longitude": -71.93,
        "morphology": "Stratovolcano",
        "name": "Villarrica"
    },
    {
        "country": "Russia",
        "elevation": 2173,
        "id": 1000083,
        "latitude": 52.7,
        "location": "Kamchatka",
        "longitude": 158.28,
        "morphology": "Stratovolcano",
        "name": "Vilyuchik"
    },
    {
        "country": "Rwanda",
        "elevation": 3696,
        "id": 20305,
        "latitude": -1.458,
        "location": "Africa-C",
        "longitude": 29.485,
        "morphology": "Stratovolcano",
        "name": "Visoke"
    },
    {
        "country": "Argentina",
        "elevation": 1210,
        "id": 1508024,
        "latitude": -41.88,
        "location": "Argentina",
        "longitude": -72.58,
        "morphology": "Cinder cone",
        "name": "Apagado"
    },
    {
        "country": "Chad",
        "elevation": 3100,
        "id": 20502,
        "latitude": 20.92,
        "location": "Africa-N",
        "longitude": 17.28,
        "morphology": "Stratovolcano",
        "name": "Voon, Tarso"
    },
    {
        "country": "Russia",
        "elevation": 1103,
        "id": 100072,
        "latitude": 58.374,
        "location": "Kamchatka",
        "longitude": 160.631,
        "morphology": "Shield volcano",
        "name": "Voyampolsky"
    },
    {
        "country": "Italy",
        "elevation": 500,
        "id": 10105,
        "latitude": 38.404,
        "location": "Italy",
        "longitude": 14.962,
        "morphology": "Stratovolcano",
        "name": "Vulcano"
    },
    {
        "country": "Italy",
        "elevation": 800,
        "id": 101003,
        "latitude": 42.6,
        "location": "Italy",
        "longitude": 11.93,
        "morphology": "Caldera",
        "name": "Vulsini"
    },
    {
        "country": "Antarctica",
        "elevation": 3292,
        "id": 1900024,
        "latitude": -77.17,
        "location": "Antarctica",
        "longitude": -126.88,
        "morphology": "Shield volcano",
        "name": "Waesche"
    },
    {
        "country": "Papua New Guinea",
        "elevation": 640,
        "id": 50304,
        "latitude": -9.57,
        "location": "New Guinea",
        "longitude": 149.075,
        "morphology": "Pyroclastic cone",
        "name": "Waiowa"
    },
    {
        "country": "Wallis & Futuna",
        "elevation": 143,
        "id": 40405,
        "latitude": -13.3,
        "location": "SW Pacific",
        "longitude": -176.17,
        "morphology": "Shield volcano",
        "name": "Wallis Islands"
    },
    {
        "country": "Papua New Guinea",
        "elevation": 610,
        "id": 50209,
        "latitude": -5.5,
        "location": "New Britain-SW Pac",
        "longitude": 150.942,
        "morphology": "Hydrothermal field",
        "name": "Sulu Range"
    },
    {
        "country": "United States",
        "elevation": 1604,
        "id": 120403,
        "latitude": 42.88,
        "location": "US-Idaho",
        "longitude": -113.22,
        "morphology": "Shield volcano",
        "name": "Wapi Lava Field"
    },
    {
        "country": "Japan",
        "elevation": 2924,
        "id": 803071,
        "latitude": 36.408,
        "location": "Honshu-Japan",
        "longitude": 137.594,
        "morphology": "Shield volcano",
        "name": "Washiba-Kumonotaira"
    },
    {
        "country": "Indonesia",
        "elevation": 2182,
        "id": 60308,
        "latitude": -7.208,
        "location": "Java",
        "longitude": 107.63,
        "morphology": "Lava dome",
        "name": "Wayang-Windu"
    },
    {
        "country": "Canada",
        "elevation": 2576,
        "id": 120015,
        "latitude": 52.33,
        "location": "Canada",
        "longitude": -120.57,
        "morphology": "Cinder cone",
        "name": "Wells Gray-Clearwater"
    },
    {
        "country": "United States",
        "elevation": 1563,
        "id": 110134,
        "latitude": 54.516,
        "location": "Aleutian Is",
        "longitude": -164.65,
        "morphology": "Stratovolcano",
        "name": "Westdahl"
    },
    {
        "country": "New Zealand",
        "elevation": 397,
        "id": 401011,
        "latitude": -35.75,
        "location": "New Zealand",
        "longitude": 174.27,
        "morphology": "Cinder cone",
        "name": "Whangarei"
    },
    {
        "country": "New Zealand",
        "elevation": 294,
        "id": 40104,
        "latitude": -37.52,
        "location": "New Zealand",
        "longitude": 177.18,
        "morphology": "Stratovolcano",
        "name": "Whakaari/White Island"
    },
    {
        "country": "Ecuador",
        "elevation": 1710,
        "id": 150302,
        "latitude": 0.02,
        "location": "Galapagos",
        "longitude": -91.35,
        "morphology": "Shield volcano",
        "name": "Wolf"
    },
    {
        "country": "United States",
        "elevation": 4278,
        "id": 110502,
        "latitude": 62.006,
        "location": "Alaska-E",
        "longitude": -144.017,
        "morphology": "Shield volcano",
        "name": "Wrangell"
    },
    {
        "country": "China",
        "elevation": 597,
        "id": 100503,
        "latitude": 48.722,
        "location": "China-E",
        "longitude": 126.15,
        "morphology": "Volcanic field",
        "name": "Wudalianchi"
    },
    {
        "country": "North Korea",
        "elevation": 0,
        "id": 100601,
        "latitude": 41.33,
        "location": "Korea",
        "longitude": 128,
        "morphology": "Unknown",
        "name": "Xianjindao"
    },
    {
        "country": "Japan",
        "elevation": 2455,
        "id": 80307,
        "latitude": 36.227,
        "location": "Honshu-Japan",
        "longitude": 137.587,
        "morphology": "Stratovolcano",
        "name": "Yakedake"
    },
    {
        "country": "Greece",
        "elevation": 180,
        "id": 102051,
        "latitude": 36.671,
        "location": "Greece",
        "longitude": 27.14,
        "morphology": "Lava dome",
        "name": "Yali"
    },
    {
        "country": "United States",
        "elevation": 1345,
        "id": 110210,
        "latitude": 57.019,
        "location": "Alaska Peninsula",
        "longitude": -157.185,
        "morphology": "Stratovolcano",
        "name": "Yantarni"
    },
    {
        "country": "Saudi Arabia",
        "elevation": 305,
        "id": 30108,
        "latitude": 17.05,
        "location": "Arabia-W",
        "longitude": 42.83,
        "morphology": "Volcanic field",
        "name": "Yar, Jabal"
    },
    {
        "country": "Vanuatu",
        "elevation": 361,
        "id": 50710,
        "latitude": -19.532,
        "location": "Vanuatu-SW Pacific",
        "longitude": 169.447,
        "morphology": "Stratovolcano",
        "name": "Yasur"
    },
    {
        "country": "Chile",
        "elevation": 2187,
        "id": 1508022,
        "latitude": -41.755,
        "location": "Chile-S",
        "longitude": -72.396,
        "morphology": "Stratovolcano",
        "name": "Yate"
    },
    {
        "country": "United States",
        "elevation": 2805,
        "id": 120501,
        "latitude": 44.43,
        "location": "US-Wyoming",
        "longitude": -110.67,
        "morphology": "Caldera",
        "name": "Yellowstone"
    },
    {
        "country": "Indonesia",
        "elevation": -3800,
        "id": 60428,
        "latitude": -7.53,
        "location": "Lesser Sunda Is",
        "longitude": 123.95,
        "morphology": "Submarine volcano",
        "name": "Yersey"
    },
    {
        "country": "Honduras",
        "elevation": 1060,
        "id": 140315,
        "latitude": 14.964,
        "location": "Honduras",
        "longitude": -87.983,
        "morphology": "Volcanic field",
        "name": "Yojoa, Lago"
    },
    {
        "country": "Papua New Guinea",
        "elevation": -5,
        "id": 501041,
        "latitude": -4.883,
        "location": "New Guinea-NE of",
        "longitude": 146.717,
        "morphology": "Unknown",
        "name": "Hankow Reef"
    },
    {
        "country": "Antarctica",
        "elevation": 1340,
        "id": 1900011,
        "latitude": -66.42,
        "location": "Antarctica",
        "longitude": 162.47,
        "morphology": "Stratovolcano",
        "name": "Young Island"
    },
    {
        "country": "Bolivia",
        "elevation": 4050,
        "id": 1505061,
        "latitude": -21.5,
        "location": "Bolivia",
        "longitude": -67.5,
        "morphology": "Cone",
        "name": "Yumia, Cerro"
    },
    {
        "country": "United States",
        "elevation": 550,
        "id": 110121,
        "latitude": 52.643,
        "location": "Aleutian Is",
        "longitude": -170.629,
        "morphology": "Shield volcano",
        "name": "Yunaska"
    },
    {
        "country": "Japan",
        "elevation": 1841,
        "id": 80319,
        "latitude": 38.144,
        "location": "Honshu-Japan",
        "longitude": 140.44,
        "morphology": "Complex volcano",
        "name": "Zaozan [Zaosan]"
    },
    {
        "country": "Russia",
        "elevation": 1349,
        "id": 100048,
        "latitude": 56.88,
        "location": "Kamchatka",
        "longitude": 159.95,
        "morphology": "Shield volcano",
        "name": "Zaozerny"
    },
    {
        "country": "Nicaragua",
        "elevation": 629,
        "id": 1404111,
        "latitude": 11.73,
        "location": "Nicaragua",
        "longitude": -85.82,
        "morphology": "Shield volcano",
        "name": "Zapatera"
    },
    {
        "country": "Russia",
        "elevation": 624,
        "id": 90018,
        "latitude": 46.925,
        "location": "Kuril Is",
        "longitude": 151.95,
        "morphology": "Caldera",
        "name": "Zavaritzki Caldera"
    },
    {
        "country": "Antarctica",
        "elevation": 551,
        "id": 190013,
        "latitude": -56.3,
        "location": "Antarctica",
        "longitude": -27.57,
        "morphology": "Stratovolcano",
        "name": "Zavodovski"
    },
    {
        "country": "Taiwan",
        "elevation": -418,
        "id": 80105,
        "latitude": 26.18,
        "location": "Taiwan-N of",
        "longitude": 122.458,
        "morphology": "Submarine volcano",
        "name": "Zengyu"
    },
    {
        "country": "Russia",
        "elevation": 1926,
        "id": 100004,
        "latitude": 51.577,
        "location": "Kamchatka",
        "longitude": 157.328,
        "morphology": "Stratovolcano",
        "name": "Zheltovsky"
    },
    {
        "country": "Yemen",
        "elevation": 191,
        "id": 20102,
        "latitude": 15.05,
        "location": "Red Sea",
        "longitude": 42.18,
        "morphology": "Shield volcano",
        "name": "Zubair Group"
    },
    {
        "country": "Yemen",
        "elevation": 624,
        "id": 201021,
        "latitude": 14.02,
        "location": "Red Sea",
        "longitude": 42.75,
        "morphology": "Shield volcano",
        "name": "Zukur"
    },
    {
        "country": "United States",
        "elevation": 2550,
        "id": 121002,
        "latitude": 34.8,
        "location": "US-New Mexico",
        "longitude": -108,
        "morphology": "Volcanic field",
        "name": "Zuni-Bandera"
    },
    {
        "country": "Saudi Arabia",
        "elevation": 1920,
        "id": 30102,
        "latitude": 27.08,
        "location": "Arabia-W",
        "longitude": 37.25,
        "morphology": "Volcanic field",
        "name": "Uwayrid, Harrat"
    },
    {
        "country": "Chile",
        "elevation": 6023,
        "id": 1505096,
        "latitude": -23.292,
        "location": "Chile-N",
        "longitude": -67.618,
        "morphology": "Stratovolcano",
        "name": "Acamarachi"
    },
    {
        "country": "Guatemala",
        "elevation": 3976,
        "id": 140208,
        "latitude": 14.501,
        "location": "Guatemala",
        "longitude": -90.876,
        "morphology": "Stratovolcano",
        "name": "Acatenango"
    },
    {
        "country": "Turkey",
        "elevation": 1683,
        "id": 103004,
        "latitude": 38.537,
        "location": "Turkey",
        "longitude": 34.621,
        "morphology": "Maar",
        "name": "Acigol-Nevsehir"
    },
    {
        "country": "United States",
        "elevation": 3742,
        "id": 120104,
        "latitude": 46.206,
        "location": "US-Washington",
        "longitude": -121.49,
        "morphology": "Stratovolcano",
        "name": "Adams"
    },
    {
        "country": "Japan",
        "elevation": 1728,
        "id": 80317,
        "latitude": 37.647,
        "location": "Honshu-Japan",
        "longitude": 140.281,
        "morphology": "Stratovolcano",
        "name": "Adatarayama"
    },
    {
        "country": "Ethiopia",
        "elevation": 1670,
        "id": 20117,
        "latitude": 10.063,
        "location": "Africa-NE",
        "longitude": 40.831,
        "morphology": "Stratovolcano",
        "name": "Adwa"
    },
    {
        "country": "United States",
        "elevation": 965,
        "id": 80416,
        "latitude": 18.77,
        "location": "Mariana Is-C Pacific",
        "longitude": 145.67,
        "morphology": "Stratovolcano",
        "name": "Agrigan"
    },
    {
        "country": "Guatemala",
        "elevation": 3760,
        "id": 140210,
        "latitude": 14.465,
        "location": "Guatemala",
        "longitude": -90.743,
        "morphology": "Stratovolcano",
        "name": "Agua"
    },
    {
        "country": "Portugal",
        "elevation": 947,
        "id": 180209,
        "latitude": 37.77,
        "location": "Azores",
        "longitude": -25.47,
        "morphology": "Stratovolcano",
        "name": "Agua de Pau"
    },
    {
        "country": "Chile",
        "elevation": 2546,
        "id": 1508062,
        "latitude": -50.33,
        "location": "Chile-S",
        "longitude": -73.75,
        "morphology": "Stratovolcano",
        "name": "Aguilera"
    },
    {
        "country": "United States",
        "elevation": -75,
        "id": 804141,
        "latitude": 20.42,
        "location": "Mariana Is-C Pacific",
        "longitude": 145.03,
        "morphology": "Submarine volcano",
        "name": "Ahyi"
    },
    {
        "country": "Russia",
        "elevation": 2278,
        "id": 1000123,
        "latitude": 53.905,
        "location": "Kamchatka",
        "longitude": 158.07,
        "morphology": "Stratovolcano",
        "name": "Bakening"
    },
    {
        "country": "Japan",
        "elevation": 1828,
        "id": 80313,
        "latitude": 36.56,
        "location": "Honshu-Japan",
        "longitude": 139.193,
        "morphology": "Stratovolcano",
        "name": "Akagisan"
    },
    {
        "country": "Japan",
        "elevation": 1499,
        "id": 80507,
        "latitude": 43.384,
        "location": "Hokkaido-Japan",
        "longitude": 144.013,
        "morphology": "Caldera",
        "name": "Akan"
    },
    {
        "country": "Russia",
        "elevation": 1956,
        "id": 100032,
        "latitude": 55.43,
        "location": "Kamchatka",
        "longitude": 158.65,
        "morphology": "Shield volcano",
        "name": "Akhtang"
    },
    {
        "country": "Japan",
        "elevation": 1637,
        "id": 80323,
        "latitude": 39.761,
        "location": "Honshu-Japan",
        "longitude": 140.799,
        "morphology": "Stratovolcano",
        "name": "Akita-Komagatake"
    },
    {
        "country": "Japan",
        "elevation": 495,
        "id": 802021,
        "latitude": 28.797,
        "location": "Ryukyu Is",
        "longitude": 128.997,
        "morphology": "Stratovolcano",
        "name": "Yokoatejima"
    },
    {
        "country": "United States",
        "elevation": 1303,
        "id": 110132,
        "latitude": 54.134,
        "location": "Aleutian Is",
        "longitude": -165.986,
        "morphology": "Stratovolcano",
        "name": "Akutan"
    },
    {
        "country": "Russia",
        "elevation": 2285,
        "id": 90039,
        "latitude": 50.861,
        "location": "Kuril Is",
        "longitude": 155.565,
        "morphology": "Stratovolcano",
        "name": "Alaid"
    },
    {
        "country": "United States",
        "elevation": 744,
        "id": 80418,
        "latitude": 17.6,
        "location": "Mariana Is-C Pacific",
        "longitude": 145.83,
        "morphology": "Stratovolcano",
        "name": "Alamagan"
    },
    {
        "country": "Ethiopia",
        "elevation": 1496,
        "id": 201112,
        "latitude": 12.888,
        "location": "Africa-NE",
        "longitude": 40.573,
        "morphology": "Shield volcano",
        "name": "Alayta"
    },
    {
        "country": "Italy",
        "elevation": 949,
        "id": 101004,
        "latitude": 41.73,
        "location": "Italy",
        "longitude": 12.7,
        "morphology": "Caldera",
        "name": "Colli Albani"
    },
    {
        "country": "Ecuador",
        "elevation": 1130,
        "id": 150304,
        "latitude": -0.43,
        "location": "Galapagos",
        "longitude": -91.12,
        "morphology": "Shield volcano",
        "name": "Alcedo"
    },
    {
        "country": "Ethiopia",
        "elevation": 988,
        "id": 20109,
        "latitude": 13.512,
        "location": "Africa-NE",
        "longitude": 40.631,
        "morphology": "Stratovolcano",
        "name": "Ale Bagu"
    },
    {
        "country": "Eritrea",
        "elevation": 904,
        "id": 20104,
        "latitude": 14.88,
        "location": "Africa-NE",
        "longitude": 39.92,
        "morphology": "Stratovolcano",
        "name": "Alid"
    },
    {
        "country": "Canada",
        "elevation": 2217,
        "id": 120002,
        "latitude": 60.42,
        "location": "Canada",
        "longitude": -135.42,
        "morphology": "Volcanic field",
        "name": "Alligator Lake"
    },
    {
        "country": "Guatemala",
        "elevation": 3173,
        "id": 140204,
        "latitude": 14.797,
        "location": "Guatemala",
        "longitude": -91.519,
        "morphology": "Stratovolcano",
        "name": "Almolonga"
    },
    {
        "country": "Russia",
        "elevation": 2570,
        "id": 100045,
        "latitude": 56.656,
        "location": "Kamchatka",
        "longitude": 159.647,
        "morphology": "Stratovolcano",
        "name": "Alney-Chashakondzha"
    },
    {
        "country": "Ethiopia",
        "elevation": 578,
        "id": 20106,
        "latitude": 13.793,
        "location": "Africa-NE",
        "longitude": 40.553,
        "morphology": "Fissure vent",
        "name": "Alu-Dalafilla"
    },
    {
        "country": "Ethiopia",
        "elevation": 2335,
        "id": 20127,
        "latitude": 7.77,
        "location": "Africa-NE",
        "longitude": 38.78,
        "morphology": "Stratovolcano",
        "name": "Alutu"
    },
    {
        "country": "United States",
        "elevation": 488,
        "id": 110139,
        "latitude": 55.424,
        "location": "Aleutian Is",
        "longitude": -163.149,
        "morphology": "Stratovolcano",
        "name": "Amak"
    },
    {
        "country": "Indonesia",
        "elevation": 1030,
        "id": 608072,
        "latitude": -0.53,
        "location": "Halmahera-Indonesia",
        "longitude": 127.48,
        "morphology": "Stratovolcano",
        "name": "Amasing"
    },
    {
        "country": "Philippines",
        "elevation": 2329,
        "id": 703088,
        "latitude": 17.32,
        "location": "Luzon-Philippines",
        "longitude": 121.1,
        "morphology": "Compound volcano",
        "name": "Ambalatungan Group"
    },
    {
        "country": "Indonesia",
        "elevation": 1795,
        "id": 60602,
        "latitude": 0.75,
        "location": "Sulawesi-Indonesia",
        "longitude": 124.42,
        "morphology": "Complex volcano",
        "name": "Ambang"
    },
    {
        "country": "Papua New Guinea",
        "elevation": 450,
        "id": 50402,
        "latitude": -4.08,
        "location": "New Ireland-SW Pacif",
        "longitude": 153.65,
        "morphology": "Stratovolcano",
        "name": "Ambitle"
    },
    {
        "country": "United States",
        "elevation": -40,
        "id": 120320,
        "latitude": 33.197,
        "location": "US-California",
        "longitude": -115.616,
        "morphology": "Cinder cone",
        "name": "Salton Buttes"
    },
    {
        "country": "Chile",
        "elevation": 2049,
        "id": 150805,
        "latitude": -43.497,
        "location": "Chile-S",
        "longitude": -72.81,
        "morphology": "Stratovolcano",
        "name": "Yanteles"
    },
    {
        "country": "Chile",
        "elevation": 3550,
        "id": 1505103,
        "latitude": -23.83,
        "location": "Chile-N",
        "longitude": -67.95,
        "morphology": "Stratovolcano",
        "name": "Tujle, Cerro"
    },
    {
        "country": "Chile",
        "elevation": 5910,
        "id": 1505102,
        "latitude": -23.82,
        "location": "Chile-N",
        "longitude": -67.77,
        "morphology": "Stratovolcano",
        "name": "Miniques"
    },
    {
        "country": "Argentina",
        "elevation": 5481,
        "id": 1505121,
        "latitude": -25.336,
        "location": "Chile-N",
        "longitude": -68.521,
        "morphology": "Complex volcano",
        "name": "Cordon del Azufre"
    },
    {
        "country": "Mexico",
        "elevation": 440,
        "id": 1401005,
        "latitude": 29.08,
        "location": "Mexico",
        "longitude": -113.513,
        "morphology": "Stratovolcano",
        "name": "Coronado"
    },
    {
        "country": "Portugal",
        "elevation": 718,
        "id": 1802002,
        "latitude": 39.699,
        "location": "Azores",
        "longitude": -31.111,
        "morphology": "Stratovolcano",
        "name": "Corvo"
    },
    {
        "country": "Nicaragua",
        "elevation": 872,
        "id": 140401,
        "latitude": 12.98,
        "location": "Nicaragua",
        "longitude": -87.57,
        "morphology": "Stratovolcano",
        "name": "Cosiguina"
    },
    {
        "country": "United States",
        "elevation": 2400,
        "id": 120318,
        "latitude": 36.03,
        "location": "US-California",
        "longitude": -117.82,
        "morphology": "Lava dome",
        "name": "Coso Volc Field"
    },
    {
        "country": "Ecuador",
        "elevation": 5911,
        "id": 150205,
        "latitude": -0.677,
        "location": "Ecuador",
        "longitude": -78.436,
        "morphology": "Stratovolcano",
        "name": "Cotopaxi"
    },
    {
        "country": "United States",
        "elevation": 2487,
        "id": 120216,
        "latitude": 42.93,
        "location": "US-Oregon",
        "longitude": -122.12,
        "morphology": "Caldera",
        "name": "Crater Lake"
    },
    {
        "country": "Papua New Guinea",
        "elevation": 3233,
        "id": 503001,
        "latitude": -6.58,
        "location": "New Guinea",
        "longitude": 145.08,
        "morphology": "Stratovolcano",
        "name": "Crater Mountain"
    },
    {
        "country": "United States",
        "elevation": 2005,
        "id": 120402,
        "latitude": 43.42,
        "location": "US-Idaho",
        "longitude": -113.5,
        "morphology": "Cinder cone",
        "name": "Craters of the Moon"
    },
    {
        "country": "Canada",
        "elevation": 335,
        "id": 120011,
        "latitude": 54.7,
        "location": "Canada",
        "longitude": -130.23,
        "morphology": "Pyroclastic cone",
        "name": "Crow Lagoon"
    },
    {
        "country": "Vietnam",
        "elevation": 157,
        "id": 70502,
        "latitude": 15.38,
        "location": "SE Asia",
        "longitude": 109.12,
        "morphology": "Volcanic field",
        "name": "Ly Son Group"
    },
    {
        "country": "Guatemala",
        "elevation": 1802,
        "id": 1402121,
        "latitude": 14.34,
        "location": "Guatemala",
        "longitude": -90.271,
        "morphology": "Volcanic field",
        "name": "Jumaytepeque"
    },
    {
        "country": "Colombia",
        "elevation": 4764,
        "id": 150110,
        "latitude": 0.95,
        "location": "Colombia",
        "longitude": -77.87,
        "morphology": "Stratovolcano",
        "name": "Cumbal"
    },
    {
        "country": "Mexico",
        "elevation": 3940,
        "id": 1401098,
        "latitude": 19.15,
        "location": "Mexico",
        "longitude": -97.27,
        "morphology": "Stratovolcano",
        "name": "Cumbres,  Las"
    },
    {
        "country": "Tonga",
        "elevation": 560,
        "id": 403101,
        "latitude": -15.85,
        "location": "Tonga-SW Pacific",
        "longitude": -173.72,
        "morphology": "Submarine volcano",
        "name": "Tafahi"
    },
    {
        "country": "New Zealand",
        "elevation": 47,
        "id": 40201,
        "latitude": -30.543,
        "location": "Kermadec Is",
        "longitude": -178.556,
        "morphology": "Submarine volcano",
        "name": "Curtis Island"
    },
    {
        "country": "Ethiopia",
        "elevation": 1401,
        "id": 201113,
        "latitude": 12.595,
        "location": "Africa-NE",
        "longitude": 40.48,
        "morphology": "Stratovolcano",
        "name": "Dabbahu"
    },
    {
        "country": "Ethiopia",
        "elevation": 1302,
        "id": 201114,
        "latitude": 12.38,
        "location": "Africa-NE",
        "longitude": 40.07,
        "morphology": "Shield volcano",
        "name": "Dabbayra"
    },
    {
        "country": "Afghanistan",
        "elevation": 3800,
        "id": 30206,
        "latitude": 33.95,
        "location": "Afghanistan",
        "longitude": 67.92,
        "morphology": "Lava dome",
        "name": "Dacht-I-Navar Group"
    },
    {
        "country": "Japan",
        "elevation": 2291,
        "id": 80506,
        "latitude": 43.664,
        "location": "Hokkaido-Japan",
        "longitude": 142.854,
        "morphology": "Stratovolcano",
        "name": "Taisetsuzan"
    },
    {
        "country": "Papua New Guinea",
        "elevation": 408,
        "id": 50204,
        "latitude": -5.094,
        "location": "New Britain-SW Pac",
        "longitude": 150.094,
        "morphology": "Caldera",
        "name": "Dakataua"
    },
    {
        "country": "Ethiopia",
        "elevation": -48,
        "id": 201041,
        "latitude": 14.242,
        "location": "Africa-NE",
        "longitude": 40.3,
        "morphology": "Explosion crater",
        "name": "Dallol"
    },
    {
        "country": "Ethiopia",
        "elevation": 1068,
        "id": 201141,
        "latitude": 11.28,
        "location": "Africa-NE",
        "longitude": 41.63,
        "morphology": "Shield volcano",
        "name": "Dama Ali"
    },
    {
        "country": "Iran",
        "elevation": 5670,
        "id": 30201,
        "latitude": 35.951,
        "location": "Iran",
        "longitude": 52.109,
        "morphology": "Stratovolcano",
        "name": "Damavand"
    },
    {
        "country": "United States",
        "elevation": 1354,
        "id": 110205,
        "latitude": 55.641,
        "location": "Alaska Peninsula",
        "longitude": -161.214,
        "morphology": "Stratovolcano",
        "name": "Dana"
    },
    {
        "country": "Indonesia",
        "elevation": 1324,
        "id": 60301,
        "latitude": -6.343,
        "location": "Java",
        "longitude": 105.978,
        "morphology": "Caldera",
        "name": "Pulosari"
    },
    {
        "country": "Mongolia",
        "elevation": 1778,
        "id": 100304,
        "latitude": 45.754,
        "location": "Mongolia",
        "longitude": 114.279,
        "morphology": "Cinder cone",
        "name": "Dariganga Volcanic Field"
    },
    {
        "country": "Ecuador",
        "elevation": 1330,
        "id": 150303,
        "latitude": -0.18,
        "location": "Galapagos",
        "longitude": -91.28,
        "morphology": "Shield volcano",
        "name": "Darwin"
    },
    {
        "country": "Indonesia",
        "elevation": 2467,
        "id": 60121,
        "latitude": -3.38,
        "location": "Sumatra",
        "longitude": 102.37,
        "morphology": "Stratovolcano",
        "name": "Daun, Bukit"
    },
    {
        "country": "United States",
        "elevation": 2163,
        "id": 120210,
        "latitude": 43.57,
        "location": "US-Oregon",
        "longitude": -121.82,
        "morphology": "Volcanic field",
        "name": "Davis Lake"
    },
    {
        "country": "Papua New Guinea",
        "elevation": 500,
        "id": 50306,
        "latitude": -9.62,
        "location": "D'Entrecasteaux Is",
        "longitude": 150.88,
        "morphology": "Volcanic field",
        "name": "Dawson Strait Group"
    },
    {
        "country": "Russia",
        "elevation": 1205,
        "id": 90011,
        "latitude": 45.5,
        "location": "Kuril Is",
        "longitude": 148.85,
        "morphology": "Stratovolcano",
        "name": "Rakkibetsudake [Demon]"
    },
    {
        "country": "United States",
        "elevation": 2287,
        "id": 110221,
        "latitude": 58.418,
        "location": "Alaska Peninsula",
        "longitude": -154.449,
        "morphology": "Stratovolcano",
        "name": "Denison"
    },
    {
        "country": "Chile",
        "elevation": 3953,
        "id": 150705,
        "latitude": -35.58,
        "location": "Chile-C",
        "longitude": -70.75,
        "morphology": "Stratovolcano",
        "name": "Descabezado Grande"
    },
    {
        "country": "United States",
        "elevation": 1698,
        "id": 120212,
        "latitude": 43.512,
        "location": "US-Oregon",
        "longitude": -120.861,
        "morphology": "Volcanic field",
        "name": "Devils Garden"
    },
    {
        "country": "Yemen",
        "elevation": 3500,
        "id": 30112,
        "latitude": 14.57,
        "location": "Arabia-S",
        "longitude": 44.67,
        "morphology": "Volcanic field",
        "name": "Dhamar, Harras of"
    },
    {
        "country": "Dominica",
        "elevation": 861,
        "id": 160008,
        "latitude": 15.612,
        "location": "W Indies",
        "longitude": -61.43,
        "morphology": "Stratovolcano",
        "name": "Diables, Morne aux"
    },
    {
        "country": "Dominica",
        "elevation": 1430,
        "id": 160009,
        "latitude": 15.503,
        "location": "W Indies",
        "longitude": -61.397,
        "morphology": "Stratovolcano",
        "name": "Diablotins, Morne"
    },
    {
        "country": "United States",
        "elevation": 1435,
        "id": 120217,
        "latitude": 43.1,
        "location": "US-Oregon",
        "longitude": -118.75,
        "morphology": "Volcanic field",
        "name": "Diamond Craters"
    },
    {
        "country": "Indonesia",
        "elevation": 2565,
        "id": 60320,
        "latitude": -7.2,
        "location": "Java",
        "longitude": 109.879,
        "morphology": "Complex volcano",
        "name": "Dieng Volcanic Complex"
    },
    {
        "country": "Russia",
        "elevation": 1040,
        "id": 1000022,
        "latitude": 51.452,
        "location": "Kamchatka",
        "longitude": 156.978,
        "morphology": "Lava dome",
        "name": "Diky Greben"
    },
    {
        "country": "Papua New Guinea",
        "elevation": 3568,
        "id": 50300,
        "latitude": -5.9,
        "location": "New Guinea",
        "longitude": 143.15,
        "morphology": "Stratovolcano",
        "name": "Doma Peaks"
    },
    {
        "country": "Portugal",
        "elevation": -13,
        "id": 180207,
        "latitude": 38.23,
        "location": "Azores",
        "longitude": -26.63,
        "morphology": "Submarine volcano",
        "name": "Don Joao de Castro Bank"
    },
    {
        "country": "Colombia",
        "elevation": 4137,
        "id": 150107,
        "latitude": 1.5,
        "location": "Colombia",
        "longitude": -76.936,
        "morphology": "Stratovolcano",
        "name": "Dona Juana"
    },
    {
        "country": "United States",
        "elevation": 2230,
        "id": 120801,
        "latitude": 39.661,
        "location": "US-Colorado",
        "longitude": -107.035,
        "morphology": "Maar",
        "name": "Dotsero"
    },
    {
        "country": "United States",
        "elevation": 2140,
        "id": 110227,
        "latitude": 58.855,
        "location": "Alaska Peninsula",
        "longitude": -153.542,
        "morphology": "Stratovolcano",
        "name": "Douglas"
    },
    {
        "country": "Indonesia",
        "elevation": 1229,
        "id": 60801,
        "latitude": 1.693,
        "location": "Halmahera-Indonesia",
        "longitude": 127.894,
        "morphology": "Complex volcano",
        "name": "Dukono"
    },
    {
        "country": "United States",
        "elevation": 15,
        "id": 110505,
        "latitude": 56.5,
        "location": "Alaska-SE",
        "longitude": -133.1,
        "morphology": "Unknown",
        "name": "Duncan Canal"
    },
    {
        "country": "Mexico",
        "elevation": 2075,
        "id": 1401022,
        "latitude": 24.15,
        "location": "Mexico",
        "longitude": -104.45,
        "morphology": "Cinder cone",
        "name": "Durango Volcanic Field"
    },
    {
        "country": "United States",
        "elevation": 1465,
        "id": 1102011,
        "latitude": 55.183,
        "location": "Alaska Peninsula",
        "longitude": -162.276,
        "morphology": "Stratovolcano",
        "name": "Dutton"
    },
    {
        "country": "United States",
        "elevation": 1652,
        "id": 120309,
        "latitude": 40.63,
        "location": "US-California",
        "longitude": -120.83,
        "morphology": "Fissure vent",
        "name": "Eagle Lake Field"
    },
    {
        "country": "Pacific Ocean",
        "elevation": -80,
        "id": 508001,
        "latitude": -20.98,
        "location": "SW Pacific",
        "longitude": 170.28,
        "morphology": "Submarine volcano",
        "name": "Eastern Gemini Seamount"
    },
    {
        "country": "Indonesia",
        "elevation": 2096,
        "id": 60410,
        "latitude": -8.817,
        "location": "Lesser Sunda Is",
        "longitude": 121.191,
        "morphology": "Stratovolcano",
        "name": "Ebulobo"
    },
    {
        "country": "Kenya",
        "elevation": 2856,
        "id": 20208,
        "latitude": -0.65,
        "location": "Africa-E",
        "longitude": 36.22,
        "morphology": "Complex volcano",
        "name": "Eburru, Ol Doinyo"
    },
    {
        "country": "Ecuador",
        "elevation": 790,
        "id": 1503011,
        "latitude": -0.02,
        "location": "Galapagos",
        "longitude": -91.546,
        "morphology": "Shield volcano",
        "name": "Ecuador"
    },
    {
        "country": "Canada",
        "elevation": 2786,
        "id": 120006,
        "latitude": 57.72,
        "location": "Canada",
        "longitude": -130.63,
        "morphology": "Stratovolcano",
        "name": "Edziza"
    },
    {
        "country": "Russia",
        "elevation": 1046,
        "id": 100042,
        "latitude": 56.57,
        "location": "Kamchatka",
        "longitude": 158.52,
        "morphology": "Shield volcano",
        "name": "Eggella"
    },
    {
        "country": "New Zealand",
        "elevation": 2518,
        "id": 40103,
        "latitude": -39.3,
        "location": "New Zealand",
        "longitude": 174.07,
        "morphology": "Stratovolcano",
        "name": "Taranaki"
    },
    {
        "country": "Indonesia",
        "elevation": 1661,
        "id": 60416,
        "latitude": -8.676,
        "location": "Lesser Sunda Is",
        "longitude": 122.455,
        "morphology": "Stratovolcano",
        "name": "Egon"
    },
    {
        "country": "Kenya",
        "elevation": 2126,
        "id": 202071,
        "latitude": -0.52,
        "location": "Africa-E",
        "longitude": 36.27,
        "morphology": "Pyroclastic cone",
        "name": "Elmenteita Badlands"
    },
    {
        "country": "Russia",
        "elevation": 1381,
        "id": 100059,
        "latitude": 57.55,
        "location": "Kamchatka",
        "longitude": 160.53,
        "morphology": "Shield volcano",
        "name": "Elovsky"
    },
    {
        "country": "United States",
        "elevation": 1436,
        "id": 110202,
        "latitude": 55.341,
        "location": "Alaska Peninsula",
        "longitude": -162.073,
        "morphology": "Caldera",
        "name": "Emmons Lake"
    },
    {
        "country": "Pacific Ocean",
        "elevation": -2850,
        "id": 60501,
        "latitude": -6.62,
        "location": "Banda Sea",
        "longitude": 124.22,
        "morphology": "Submarine volcano",
        "name": "Emperor of China"
    },
    {
        "country": "Vanuatu",
        "elevation": 833,
        "id": 50706,
        "latitude": -16.68,
        "location": "Vanuatu-SW Pacific",
        "longitude": 168.37,
        "morphology": "Stratovolcano",
        "name": "Epi"
    },
    {
        "country": "Turkey",
        "elevation": 3864,
        "id": 10301,
        "latitude": 38.531,
        "location": "Turkey",
        "longitude": 35.447,
        "morphology": "Stratovolcano",
        "name": "Erciyes Dagi"
    },
    {
        "country": "Antarctica",
        "elevation": 3794,
        "id": 190002,
        "latitude": -77.53,
        "location": "Antarctica",
        "longitude": 167.17,
        "morphology": "Stratovolcano",
        "name": "Erebus"
    },
    {
        "country": "Ethiopia",
        "elevation": 613,
        "id": 20108,
        "latitude": 13.6,
        "location": "Africa-NE",
        "longitude": 40.67,
        "morphology": "Shield volcano",
        "name": "Erta Ale"
    },
    {
        "country": "Argentina",
        "elevation": 5451,
        "id": 1505112,
        "latitude": -25.083,
        "location": "Chile-N",
        "longitude": -68.367,
        "morphology": "Stratovolcano",
        "name": "Corrida de Cori Volcanic Field"
    },
    {
        "country": "Iceland",
        "elevation": 1620,
        "id": 170402,
        "latitude": 64.25,
        "location": "Iceland-SE",
        "longitude": -16.583,
        "morphology": "Stratovolcano",
        "name": "Esjufjoll"
    },
    {
        "country": "United States",
        "elevation": -43,
        "id": 80421,
        "latitude": 15,
        "location": "Mariana Is-C Pacific",
        "longitude": 145.25,
        "morphology": "Submarine volcano",
        "name": "Esmeralda Bank"
    },
    {
        "country": "United States",
        "elevation": 243,
        "id": 110401,
        "latitude": 66.35,
        "location": "Alaska-W",
        "longitude": -164.33,
        "morphology": "Volcanic field",
        "name": "Espenberg"
    },
    {
        "country": "Nicaragua",
        "elevation": 899,
        "id": 1404131,
        "latitude": 13.17,
        "location": "Nicaragua",
        "longitude": -86.4,
        "morphology": "Fissure vent",
        "name": "Esteli"
    },
    {
        "country": "Italy",
        "elevation": 3320,
        "id": 10106,
        "latitude": 37.748,
        "location": "Italy",
        "longitude": 14.999,
        "morphology": "Stratovolcano",
        "name": "Etna"
    },
    {
        "country": "Iceland",
        "elevation": 1651,
        "id": 170202,
        "latitude": 63.633,
        "location": "Iceland-S",
        "longitude": -19.633,
        "morphology": "Stratovolcano",
        "name": "Eyjafjallajokull"
    },
    {
        "country": "Tonga",
        "elevation": -17,
        "id": 40305,
        "latitude": -20.32,
        "location": "Tonga-SW Pacific",
        "longitude": -175.42,
        "morphology": "Submarine volcano",
        "name": "Fonuafo'ou"
    },
    {
        "country": "United States",
        "elevation": 337,
        "id": 80414,
        "latitude": 20.546,
        "location": "Mariana Is-C Pacific",
        "longitude": 144.893,
        "morphology": "Stratovolcano",
        "name": "Farallon de Pajaros"
    },
    {
        "country": "Portugal",
        "elevation": 1043,
        "id": 180201,
        "latitude": 38.6,
        "location": "Azores",
        "longitude": -28.73,
        "morphology": "Stratovolcano",
        "name": "Fayal"
    },
    {
        "country": "Russia",
        "elevation": 965,
        "id": 100051,
        "latitude": 57.13,
        "location": "Kamchatka",
        "longitude": 160.4,
        "morphology": "Shield volcano",
        "name": "Fedotych"
    },
    {
        "country": "Ethiopia",
        "elevation": 2007,
        "id": 20119,
        "latitude": 8.975,
        "location": "Africa-NE",
        "longitude": 39.93,
        "morphology": "Stratovolcano",
        "name": "Fentale"
    },
    {
        "country": "Ecuador",
        "elevation": 1476,
        "id": 150301,
        "latitude": -0.37,
        "location": "Galapagos",
        "longitude": -91.55,
        "morphology": "Shield volcano",
        "name": "Fernandina"
    },
    {
        "country": "Peru",
        "elevation": 3693,
        "id": 150400,
        "latitude": -14.176,
        "location": "Peru",
        "longitude": -71.351,
        "morphology": "Stratovolcano",
        "name": "Quimsachata"
    },
    {
        "country": "Portugal",
        "elevation": 914,
        "id": 1802001,
        "latitude": 39.462,
        "location": "Azores",
        "longitude": -31.216,
        "morphology": "Stratovolcano",
        "name": "Flores"
    },
    {
        "country": "Guatemala",
        "elevation": 1600,
        "id": 140214,
        "latitude": 14.308,
        "location": "Guatemala",
        "longitude": -89.992,
        "morphology": "Volcanic field",
        "name": "Flores"
    },
    {
        "country": "Cape Verde",
        "elevation": 2829,
        "id": 180401,
        "latitude": 14.95,
        "location": "Cape Verde Is",
        "longitude": -24.35,
        "morphology": "Stratovolcano",
        "name": "Fogo"
    },
    {
        "country": "Tonga",
        "elevation": 188,
        "id": 40310,
        "latitude": -18.023,
        "location": "Tonga-SW Pacific",
        "longitude": -174.317,
        "morphology": "Stratovolcano",
        "name": "Fonualei"
    },
    {
        "country": "Uganda",
        "elevation": 1615,
        "id": 203001,
        "latitude": 0.7,
        "location": "Africa-C",
        "longitude": 30.25,
        "morphology": "Tuff cone",
        "name": "Fort Portal"
    },
    {
        "country": "Canada",
        "elevation": 1239,
        "id": 120001,
        "latitude": 62.93,
        "location": "Canada",
        "longitude": -137.38,
        "morphology": "Volcanic field",
        "name": "Fort Selkirk"
    },
    {
        "country": "United States",
        "elevation": 1501,
        "id": 120214,
        "latitude": 43.361,
        "location": "US-Oregon",
        "longitude": -120.669,
        "morphology": "Volcanic field",
        "name": "Four Craters Lava Field"
    },
    {
        "country": "Reunion",
        "elevation": 2632,
        "id": 30302,
        "latitude": -21.244,
        "location": "Indian O-W",
        "longitude": 55.708,
        "morphology": "Shield volcano",
        "name": "Fournaise, Piton de la"
    },
    {
        "country": "United States",
        "elevation": 2105,
        "id": 110226,
        "latitude": 58.77,
        "location": "Alaska Peninsula",
        "longitude": -153.672,
        "morphology": "Stratovolcano",
        "name": "Fourpeaked"
    },
    {
        "country": "United States",
        "elevation": 1728,
        "id": 110201,
        "latitude": 55.067,
        "location": "Alaska Peninsula",
        "longitude": -162.835,
        "morphology": "Stratovolcano",
        "name": "Frosty"
    },
    {
        "country": "Guatemala",
        "elevation": 3763,
        "id": 140209,
        "latitude": 14.473,
        "location": "Guatemala",
        "longitude": -90.88,
        "morphology": "Stratovolcano",
        "name": "Fuego"
    },
    {
        "country": "Spain",
        "elevation": 529,
        "id": 180305,
        "latitude": 28.358,
        "location": "Canary Is",
        "longitude": -14.02,
        "morphology": "Fissure vent",
        "name": "Fuerteventura"
    },
    {
        "country": "Japan",
        "elevation": -217,
        "id": 804133,
        "latitude": 21.93,
        "location": "Volcano Is-Japan",
        "longitude": 143.47,
        "morphology": "Submarine volcano",
        "name": "Fukujin"
    },
    {
        "country": "Japan",
        "elevation": -29,
        "id": 80413,
        "latitude": 24.285,
        "location": "Volcano Is-Japan",
        "longitude": 141.481,
        "morphology": "Submarine volcano",
        "name": "Fukutoku-Oka-no-Ba"
    },
    {
        "country": "Portugal",
        "elevation": 805,
        "id": 180210,
        "latitude": 37.77,
        "location": "Azores",
        "longitude": -25.32,
        "morphology": "Stratovolcano",
        "name": "Furnas"
    },
    {
        "country": "Russia",
        "elevation": 1742,
        "id": 90034,
        "latitude": 50.267,
        "location": "Kuril Is",
        "longitude": 155.246,
        "morphology": "Stratovolcano",
        "name": "Fuss Peak"
    },
    {
        "country": "Ethiopia",
        "elevation": 287,
        "id": 20105,
        "latitude": 13.975,
        "location": "Africa-NE",
        "longitude": 40.408,
        "morphology": "Stratovolcano",
        "name": "Gada Ale"
    },
    {
        "country": "Pacific Ocean",
        "elevation": -2430,
        "id": 130302,
        "latitude": 0.792,
        "location": "Pacific-E",
        "longitude": -86.15,
        "morphology": "Submarine volcano",
        "name": "Galapagos Rift"
    },
    {
        "country": "Colombia",
        "elevation": 4276,
        "id": 150108,
        "latitude": 1.22,
        "location": "Colombia",
        "longitude": -77.37,
        "morphology": "Complex volcano",
        "name": "Galeras"
    },
    {
        "country": "Solomon Is.",
        "elevation": 1000,
        "id": 505062,
        "latitude": -9.35,
        "location": "Solomon Is-SW Pacifi",
        "longitude": 159.73,
        "morphology": "Volcanic field",
        "name": "Gallego"
    },
    {
        "country": "Indonesia",
        "elevation": 1715,
        "id": 60806,
        "latitude": 0.8,
        "location": "Halmahera-Indonesia",
        "longitude": 127.33,
        "morphology": "Stratovolcano",
        "name": "Gamalama"
    },
    {
        "country": "Indonesia",
        "elevation": 1635,
        "id": 60804,
        "latitude": 1.38,
        "location": "Halmahera-Indonesia",
        "longitude": 127.53,
        "morphology": "Stratovolcano",
        "name": "Gamkonora"
    },
    {
        "country": "Papua New Guinea",
        "elevation": 564,
        "id": 50207,
        "latitude": -5.416,
        "location": "New Britain-SW Pac",
        "longitude": 150.027,
        "morphology": "Stratovolcano",
        "name": "Krummel-Garbuna-Welcker"
    },
    {
        "country": "United States",
        "elevation": 1573,
        "id": 110107,
        "latitude": 51.79,
        "location": "Aleutian Is",
        "longitude": -178.794,
        "morphology": "Stratovolcano",
        "name": "Gareloi"
    },
    {
        "country": "Canada",
        "elevation": 2316,
        "id": 120019,
        "latitude": 49.933,
        "location": "Canada",
        "longitude": -123,
        "morphology": "Volcanic field",
        "name": "Garibaldi Lake"
    },
    {
        "country": "Canada",
        "elevation": 2678,
        "id": 120020,
        "latitude": 49.85,
        "location": "Canada",
        "longitude": -123,
        "morphology": "Stratovolcano",
        "name": "Garibaldi"
    },
    {
        "country": "Papua New Guinea",
        "elevation": 368,
        "id": 50203,
        "latitude": -4.687,
        "location": "New Britain-SW Pac",
        "longitude": 149.511,
        "morphology": "Stratovolcano",
        "name": "Garove"
    },
    {
        "country": "Vanuatu",
        "elevation": 797,
        "id": 50702,
        "latitude": -14.27,
        "location": "Vanuatu-SW Pacific",
        "longitude": 167.5,
        "morphology": "Stratovolcano",
        "name": "Gaua"
    },
    {
        "country": "Ethiopia",
        "elevation": 1873,
        "id": 20123,
        "latitude": 8.357,
        "location": "Africa-NE",
        "longitude": 39.188,
        "morphology": "Caldera",
        "name": "Gedamsa"
    },
    {
        "country": "Indonesia",
        "elevation": 3008,
        "id": 60306,
        "latitude": -6.77,
        "location": "Java",
        "longitude": 106.965,
        "morphology": "Stratovolcano",
        "name": "Gede-Pangrango"
    },
    {
        "country": "Ecuador",
        "elevation": 64,
        "id": 1503081,
        "latitude": 0.32,
        "location": "Galapagos",
        "longitude": -89.958,
        "morphology": "Shield volcano",
        "name": "Genovesa"
    },
    {
        "country": "Turkey",
        "elevation": 0,
        "id": 103022,
        "latitude": 39.17,
        "location": "Turkey",
        "longitude": 43.33,
        "morphology": "Unknown",
        "name": "Girekol"
    },
    {
        "country": "United States",
        "elevation": 3213,
        "id": 120102,
        "latitude": 48.112,
        "location": "US-Washington",
        "longitude": -121.113,
        "morphology": "Stratovolcano",
        "name": "Glacier Peak"
    },
    {
        "country": "Mexico",
        "elevation": 3500,
        "id": 1401097,
        "latitude": 19.33,
        "location": "Mexico",
        "longitude": -97.25,
        "morphology": "Volcanic field",
        "name": "Gloria, La"
    },
    {
        "country": "Russia",
        "elevation": 442,
        "id": 900091,
        "latitude": 45.25,
        "location": "Kuril Is",
        "longitude": 148.35,
        "morphology": "Pyroclastic cone",
        "name": "Rucharuyama [Golets-Tornyi Group]"
    },
    {
        "country": "Turkey",
        "elevation": 2143,
        "id": 103003,
        "latitude": 38.25,
        "location": "Turkey",
        "longitude": 34.57,
        "morphology": "Lava dome",
        "name": "Gollu Dag"
    },
    {
        "country": "Russia",
        "elevation": 535,
        "id": 90001,
        "latitude": 43.844,
        "location": "Kuril Is",
        "longitude": 145.504,
        "morphology": "Caldera",
        "name": "Tomariyama [Golovnin]"
    },
    {
        "country": "Papua New Guinea",
        "elevation": 220,
        "id": 503041,
        "latitude": -9.358,
        "location": "D'Entrecasteaux Is",
        "longitude": 150.246,
        "morphology": "Volcanic field",
        "name": "Goodenough"
    },
    {
        "country": "United States",
        "elevation": 2755,
        "id": 1105021,
        "latitude": 62.13,
        "location": "Alaska-E",
        "longitude": -143.08,
        "morphology": "Cinder cone",
        "name": "Gordon"
    },
    {
        "country": "Russia",
        "elevation": 891,
        "id": 90017,
        "latitude": 46.83,
        "location": "Kuril Is",
        "longitude": 151.75,
        "morphology": "Stratovolcano",
        "name": "Goriaschaia Sopka"
    },
    {
        "country": "Portugal",
        "elevation": 402,
        "id": 180204,
        "latitude": 39.02,
        "location": "Azores",
        "longitude": -27.97,
        "morphology": "Stratovolcano",
        "name": "Graciosa"
    },
    {
        "country": "Spain",
        "elevation": 1950,
        "id": 180304,
        "latitude": 28,
        "location": "Canary Is",
        "longitude": -15.58,
        "morphology": "Fissure vent",
        "name": "Gran Canaria"
    },
    {
        "country": "United States",
        "elevation": 2317,
        "id": 110219,
        "latitude": 58.354,
        "location": "Alaska Peninsula",
        "longitude": -155.092,
        "morphology": "Stratovolcano",
        "name": "Griggs"
    },
    {
        "country": "Comoros",
        "elevation": 1087,
        "id": 303001,
        "latitude": -11.47,
        "location": "Indian O-W",
        "longitude": 43.33,
        "morphology": "Shield volcano",
        "name": "Grille, La"
    },
    {
        "country": "Iceland",
        "elevation": 200,
        "id": 170106,
        "latitude": 64.05,
        "location": "Iceland-SW",
        "longitude": -20.883,
        "morphology": "Crater rows",
        "name": "Grimsnes"
    },
    {
        "country": "Iceland",
        "elevation": 1719,
        "id": 170301,
        "latitude": 64.416,
        "location": "Iceland-NE",
        "longitude": -17.316,
        "morphology": "Caldera",
        "name": "Grimsvotn"
    },
    {
        "country": "Ethiopia",
        "elevation": 852,
        "id": 201116,
        "latitude": 11.816,
        "location": "Africa-NE",
        "longitude": 40.242,
        "morphology": "Stratovolcano",
        "name": "Groppo"
    },
    {
        "country": "Mexico",
        "elevation": 1100,
        "id": 1401006,
        "latitude": 29.07,
        "location": "Mexico",
        "longitude": -118.28,
        "morphology": "Shield volcano",
        "name": "Guadalupe"
    },
    {
        "country": "Ecuador",
        "elevation": 4784,
        "id": 150202,
        "latitude": -0.171,
        "location": "Ecuador",
        "longitude": -78.598,
        "morphology": "Stratovolcano",
        "name": "Guagua Pichincha"
    },
    {
        "country": "Chile",
        "elevation": 6071,
        "id": 150502,
        "latitude": -18.42,
        "location": "Chile-N",
        "longitude": -69.092,
        "morphology": "Stratovolcano",
        "name": "Guallatiri"
    },
    {
        "country": "Bolivia",
        "elevation": 5598,
        "id": 1505093,
        "latitude": -22.895,
        "location": "Chile-N",
        "longitude": -67.566,
        "morphology": "Lava dome",
        "name": "Guayaques"
    },
    {
        "country": "United States",
        "elevation": 287,
        "id": 80419,
        "latitude": 17.307,
        "location": "Mariana Is-C Pacific",
        "longitude": 145.845,
        "morphology": "Stratovolcano",
        "name": "Guguan"
    },
    {
        "country": "Indonesia",
        "elevation": 2249,
        "id": 60313,
        "latitude": -7.143,
        "location": "Java",
        "longitude": 107.84,
        "morphology": "Complex volcano",
        "name": "Guntur"
    },
    {
        "country": "Pacific Ocean",
        "elevation": 282,
        "id": 60503,
        "latitude": -6.642,
        "location": "Banda Sea",
        "longitude": 126.65,
        "morphology": "Stratovolcano",
        "name": "Gunungapi Wetar"
    },